City_ID,City,Lat,Lng,Max Temp,Humidity,Cloudiness,Wind Speed,Country,Date
0,castillos,-34.1667,-53.8333,19.55,70,94,1.82,UY,1712498546
1,grytviken,-54.2811,-36.5092,5.41,97,100,7.22,GS,1712498357
2,georgetown,5.4112,100.3354,31.97,45,20,2.06,MY,1712498348
3,wailua homesteads,22.0669,-159.378,21.24,92,100,10.29,US,1712498548
4,la ronge,55.1001,-105.2842,0.14,86,75,1.54,CA,1712498548
5,waitangi,-43.9535,-176.5597,11.57,83,60,2.68,NZ,1712498549
6,papatowai,-46.5619,169.4708,9.11,95,99,2.14,NZ,1712498549
7,margaret river,-33.95,115.0667,15.63,79,1,7.31,AU,1712498550
8,adamstown,-25.066,-130.1015,22.6,76,51,4.72,PN,1712498551
9,mu'minobod,38.1085,70.0285,18.35,51,4,2.38,TJ,1712498551
10,puerto ayora,-0.7393,-90.3518,25.31,96,57,0.89,EC,1712498552
11,yellowknife,62.456,-114.3525,-0.33,94,75,5.66,CA,1712498487
12,flin flon,54.7682,-101.865,0.91,64,100,1.03,CA,1712498553
13,ribeira grande,38.5167,-28.7,18.22,88,40,10.28,PT,1712498554
14,ulsteinvik,62.3432,5.8487,11.07,87,100,5.77,NO,1712498554
15,port elizabeth,-33.918,25.5701,20.05,81,0,8.75,ZA,1712498461
16,longyearbyen,78.2186,15.6401,-17.09,60,0,3.09,SJ,1712498366
17,jais,26.25,81.5333,31.38,13,0,4.01,IN,1712498556
18,nagar karnul,16.4821,78.3247,36.44,17,42,1.92,IN,1712498557
19,naze,28.3667,129.4833,19.51,92,100,2.71,JP,1712498557
20,dhola,21.8833,71.7833,34.85,15,0,3.49,IN,1712498558
21,praia da vitoria,38.7333,-27.0667,20.14,68,20,4.61,PT,1712498558
22,albany,42.6001,-73.9662,6.44,68,66,2.24,US,1712498446
23,kourou,5.1552,-52.6478,30.03,62,86,4.33,GF,1712498407
24,edinburgh of the seven seas,-37.0676,-12.3116,18.77,94,100,9.45,SH,1712498561
25,kodiak,57.79,-152.4072,0.81,99,100,3.14,US,1712498561
26,broome,42.2506,-75.833,7.7,61,100,3.58,US,1712498534
27,aasiaat,68.7098,-52.8699,-5.46,75,100,0.8,GL,1712498563
28,petropavlovsk-kamchatsky,53.0452,158.6483,0.25,73,0,5.81,RU,1712498563
29,isafjordur,66.0755,-23.124,-1.98,80,75,10.29,IS,1712498564
30,susuman,62.7833,148.1667,-20.57,100,79,0.89,RU,1712498565
31,grammichele,37.2123,14.6397,24.21,22,1,3.99,IT,1712498566
32,dhuusamarreeb,5.535,46.3861,36.97,20,3,4.47,SO,1712498566
33,blackmans bay,-43.0167,147.3167,13.07,95,92,1.14,AU,1712498567
34,hawaiian paradise park,19.5933,-154.9731,18.91,95,93,1.48,US,1712498568
35,nizhnesortymskiy,62.4397,71.7603,-3.96,76,60,10.2,RU,1712498568
36,kudahuvadhoo,2.6708,72.8944,29.71,73,100,2.7,MV,1712498569
37,olonkinbyen,70.9221,-8.7187,-4.82,63,98,7.84,SJ,1712498569
38,nemuro,43.3236,145.575,4.05,100,100,5.28,JP,1712498570
39,merida,20.9667,-89.6167,26.6,81,4,6.71,MX,1712498350
40,tromso,69.6496,18.957,1.01,47,75,2.57,NO,1712498571
41,iqaluit,63.7506,-68.5145,-11.15,72,75,4.63,CA,1712498428
42,whitehorse,60.7161,-135.0538,-3.57,68,75,4.12,CA,1712498355
43,delphos,40.8434,-84.3416,10.7,67,10,2.24,US,1712498573
44,port-aux-francais,-49.35,70.2167,5.38,68,100,7.73,TF,1712498574
45,saint-pierre,-21.3393,55.4781,27.82,78,0,5.14,RE,1712498574
46,punta arenas,-53.15,-70.9167,5.06,70,20,11.83,CL,1712498290
47,plettenberg bay,-34.0527,23.3716,17.88,91,95,9.81,ZA,1712498576
48,valparaiso,-33.0393,-71.6273,19.15,62,0,2.06,CL,1712498576
49,lichinga,-13.3128,35.2406,22.37,82,53,2.63,MZ,1712498577
50,san patricio,28.017,-97.5169,23.42,87,100,2.06,US,1712498577
51,saint-paul,-21.0096,55.2707,29.05,82,41,1.51,RE,1712498578
52,ust'-talovka,50.5493,81.85,10.41,81,99,1.1,KZ,1712498579
53,bethel,41.3712,-73.414,8.65,62,12,1.34,US,1712498554
54,bodrum,37.0383,27.4292,20.96,64,47,6.83,TR,1712498580
55,ballycastle,55.2044,-6.243,9.74,63,7,9.77,GB,1712498580
56,holualoa,19.6228,-155.9522,19.32,92,19,2.75,US,1712498581
57,red hill,33.9996,-79.2581,14.39,56,3,2.8,US,1712498582
58,flying fish cove,-10.4217,105.6791,26.82,89,100,4.12,CX,1712498582
59,turinskaya sloboda,57.6232,64.3858,1.53,68,96,5.89,RU,1712498583
60,gawler,-34.6,138.7333,15.26,79,0,1.78,AU,1712498323
61,cidreira,-30.1811,-50.2056,19.97,96,100,9.63,BR,1712498584
62,luau,-10.7073,22.2247,23.16,78,98,1.65,AO,1712498585
63,luderitz,-26.6481,15.1594,18.34,70,0,4.01,NA,1712498586
64,bastrop,32.7562,-91.8724,19.27,84,100,2.06,US,1712498306
65,amos,48.5669,-78.1162,1.0,89,100,1.51,CA,1712498406
66,callao,-12.0667,-77.15,22.16,83,75,2.06,PE,1712498504
67,ponot,8.452,123.0222,26.86,81,100,7.26,PH,1712498588
68,anadyr,64.75,177.4833,-19.72,76,0,5.0,RU,1712498476
69,ushuaia,-54.8,-68.3,6.81,57,40,5.66,AR,1712498590
70,saint-francois,46.4154,3.9054,21.34,58,0,3.09,FR,1712498590
71,ust-nera,64.5667,143.2,-16.67,99,54,1.15,RU,1712498591
72,sitka,57.0531,-135.33,2.51,87,100,4.75,US,1712498592
73,mount pearl,47.5166,-52.7813,3.58,81,75,8.23,CA,1712498592
74,kismayo,-0.3582,42.5454,30.26,69,100,4.62,SO,1712498593
75,bloemfontein,-29.1211,26.214,17.71,82,75,8.23,ZA,1712498594
76,trinity beach,-16.7888,145.6968,26.12,97,100,2.06,AU,1712498595
77,zhangye,38.9342,100.4517,14.71,25,100,4.36,CN,1712498596
78,jamestown,42.097,-79.2353,7.62,76,0,0.89,US,1712498484
79,la passe,45.5549,-0.8967,20.13,87,100,8.65,FR,1712498597
80,susanville,40.4163,-120.653,-2.09,89,100,0.45,US,1712498402
81,tazovsky,67.4667,78.7,-5.72,83,100,10.12,RU,1712498598
82,la'ie,21.6477,-157.9253,20.25,90,99,4.02,US,1712498599
83,ankeny,41.7297,-93.6058,8.4,82,75,8.23,US,1712498487
84,tura,25.5198,90.2201,27.55,35,100,3.27,IN,1712498600
85,bodo,67.28,14.405,2.02,86,75,13.89,NO,1712498601
86,hengchun,22.0042,120.7439,27.21,82,37,1.66,TW,1712498601
87,bandon,51.7469,-8.7425,12.77,78,8,9.87,IE,1712498602
88,bredasdorp,-34.5322,20.0403,17.16,83,100,12.79,ZA,1712498603
89,pallasovka,50.05,46.8833,13.8,50,51,4.2,RU,1712498603
90,constantia,44.1833,28.65,16.5,83,46,3.46,RO,1712498382
91,stanley,54.868,-1.6985,13.2,75,7,11.72,GB,1712498605
92,invercargill,-46.4,168.35,10.57,91,61,1.79,NZ,1712498606
93,trairi,-3.2778,-39.2689,29.73,71,64,1.52,BR,1712498583
94,vila franca do campo,37.7167,-25.4333,18.27,99,100,8.0,PT,1712498607
95,west island,-12.1568,96.8225,28.99,79,40,5.14,CC,1712498608
96,silver city,32.7701,-108.2803,3.16,62,0,3.09,US,1712498608
97,tiksi,71.6872,128.8694,-8.45,73,100,7.79,RU,1712498609
98,hammerfest,70.6634,23.6821,-1.75,64,40,7.72,NO,1712498610
99,bilibino,68.0546,166.4372,-16.69,100,100,1.12,RU,1712498549
100,shpola,49.0069,31.3947,17.9,51,87,0.85,UA,1712498611
101,namibe,-15.1961,12.1522,25.76,71,80,4.0,AO,1712498611
102,enewetak,11.3474,162.3373,27.33,77,89,9.69,MH,1712498612
103,massawa,15.6097,39.45,32.0,61,20,5.65,ER,1712498613
104,avarua,-21.2078,-159.775,24.03,100,100,1.54,CK,1712498613
105,heroica guaymas,27.9333,-110.9,14.94,43,0,2.13,MX,1712498428
106,saint-joseph,-21.3667,55.6167,27.21,83,26,2.4,RE,1712498614
107,itamaraca,-7.7478,-34.8256,32.03,61,22,3.93,BR,1712498615
108,las vegas,36.175,-115.1372,10.38,34,0,12.07,US,1712498331
109,hithadhoo,-0.6,73.0833,29.19,73,100,1.37,MV,1712498532
110,ouallam,14.3188,2.0866,42.06,6,100,3.78,NE,1712498618
111,vorkuta,67.5,64.0,-7.16,87,100,6.71,RU,1712498618
112,broken hill,-31.95,141.4333,16.56,45,74,2.84,AU,1712498619
113,pisco,-13.7,-76.2167,22.23,83,100,1.54,PE,1712498438
114,paita,-5.0892,-81.1144,23.25,72,72,4.02,PE,1712498620
115,nova xavantina,-14.6667,-52.35,28.69,72,18,1.57,BR,1712498472
116,cuamba,-14.8031,36.5372,25.79,78,98,1.9,MZ,1712498621
117,grand falls-windsor,48.9332,-55.6649,3.61,77,99,2.24,CA,1712498622
118,nantucket,41.2835,-70.0995,4.49,87,100,7.72,US,1712498336
119,canto do buriti,-8.11,-42.9444,32.39,47,11,2.87,BR,1712498541
120,badger,64.8,-147.5333,-3.89,83,100,0.85,US,1712498624
121,port mathurin,-19.6833,63.4167,27.31,79,18,5.55,MU,1712498625
122,mariental,-24.6333,17.9667,27.66,4,0,11.77,NA,1712498625
123,puerto natales,-51.7236,-72.4875,9.25,49,40,8.23,CL,1712498515
124,hermanus,-34.4187,19.2345,16.56,85,100,14.02,ZA,1712498627
125,ta`u,-14.2336,-169.5144,28.73,77,82,4.32,AS,1712498627
126,tsumeb,-19.2333,17.7167,28.55,41,98,3.84,NA,1712498628
127,polyarnyy,69.1989,33.4478,-3.63,82,99,2.83,RU,1712498629
128,aykhal,66.0,111.5,-10.65,95,100,6.94,RU,1712498629
129,xinji,37.9028,115.2036,19.01,54,100,3.59,CN,1712498442
130,ketchikan,55.3422,-131.6461,4.26,87,100,6.17,US,1712498630
131,severo-yeniseyskiy,60.3725,93.0408,-9.12,87,98,4.92,RU,1712498631
132,udachny,66.4167,112.4,-9.75,94,100,9.95,RU,1712498632
133,sechura,-5.5569,-80.8222,24.32,67,72,3.88,PE,1712498632
134,general acha,-37.377,-64.6043,20.9,33,45,1.78,AR,1712498537
135,zhangjiakou shi xuanhua qu,40.6103,115.0447,18.41,17,100,2.72,CN,1712498634
136,weno,7.4515,151.8468,27.95,79,98,7.61,FM,1712498634
137,antalaha,-14.9003,50.2788,26.37,89,6,4.4,MG,1712498635
138,chonchi,-42.6128,-73.8092,10.62,93,100,0.71,CL,1712498505
139,talnakh,69.4865,88.3972,-7.66,93,100,5.7,RU,1712498637
140,kralendijk,12.15,-68.2667,29.99,74,20,9.26,BQ,1712498382
141,bonthe,7.5264,-12.505,32.03,59,86,3.06,SL,1712498638
142,ubari,26.5921,12.7805,31.14,8,0,3.78,LY,1712498511
143,college,64.8569,-147.8028,-3.84,72,100,0.0,US,1712498418
144,kirensk,57.7853,108.1119,-5.58,96,61,1.34,RU,1712498640
145,fort bragg,35.139,-79.006,13.44,47,0,4.12,US,1712498641
146,prince rupert,54.3161,-130.3201,4.83,89,100,16.46,CA,1712498525
147,newquay,50.4132,-5.0819,13.42,76,75,14.4,GB,1712498643
148,san antonio de pale,-1.4014,5.6325,29.01,74,90,3.85,GQ,1712498643
149,dudinka,69.4058,86.1778,-7.4,89,100,8.05,RU,1712498644
150,st. john's,47.5649,-52.7093,4.04,81,75,8.23,CA,1712498399
151,north bend,43.4065,-124.2243,6.59,100,75,3.6,US,1712498646
152,pokrovsk,48.282,37.1758,18.87,38,100,2.68,UA,1712498398
153,prado,-17.3411,-39.2208,29.13,51,30,4.55,BR,1712498486
154,kostel,42.8887,25.995,16.16,51,71,5.76,BG,1712498648
155,saipan,15.1355,145.701,27.39,78,75,7.72,MP,1712498649
156,znamenskoye,57.1281,73.8282,-4.06,85,37,2.33,RU,1712498650
157,tha khanon,9.0302,98.9529,29.9,64,65,1.87,TH,1712498650
158,wynyard,-41.0,145.7167,12.11,92,14,3.12,AU,1712498651
159,atafu village,-8.5421,-172.5159,29.32,74,97,2.12,TK,1712498651
160,kenai,60.5544,-151.2583,-1.03,100,100,4.63,US,1712498564
161,egilsstadir,65.2653,-14.3948,-0.05,93,100,11.83,IS,1712498653
162,howard springs,-12.497,131.047,27.95,96,33,2.36,AU,1712498653
163,salalah,17.0151,54.0924,28.18,56,96,3.1,OM,1712498432
164,puerto armuelles,8.2833,-82.8667,27.83,71,98,1.34,PA,1712498458
165,humaita,-7.5061,-63.0208,23.95,99,100,0.32,BR,1712498547
166,amuntai,-2.4177,115.2494,24.1,95,99,0.86,ID,1712498633
167,eraan,9.0629,117.7016,26.43,76,80,2.12,PH,1712498656
168,antsiranana,-12.2787,49.2917,29.42,70,40,4.12,MG,1712498657
169,hirara,24.8,125.2833,22.15,100,40,3.09,JP,1712498658
170,paulden,34.8856,-112.4682,3.69,47,0,0.74,US,1712498658
171,inhambane,-23.865,35.3833,25.0,76,98,7.89,MZ,1712498659
172,rudbar,30.15,62.6,31.2,9,0,2.47,AF,1712498659
173,vorgashor,67.5833,63.95,-7.33,87,100,6.85,RU,1712498660
174,gakem,6.7658,8.9881,39.21,27,37,3.46,NG,1712498661
175,masallatah,32.6167,14.0,25.34,24,0,5.65,LY,1712498661
176,iskateley,67.6803,53.1512,-5.55,88,99,6.26,RU,1712498662
177,nar'yan-mar,67.6713,53.087,-5.5,88,98,6.26,RU,1712498663
178,kapuskasing,49.4169,-82.4331,0.05,74,0,0.0,CA,1712498611
179,new norfolk,-42.7826,147.0587,13.73,97,52,1.17,AU,1712498664
180,papao,-17.75,-149.55,26.82,80,100,4.93,PF,1712498664
181,betio village,1.358,172.9211,29.02,83,49,7.82,KI,1712498665
182,nelson bay,-32.7167,152.15,20.56,88,0,1.79,AU,1712498666
183,lospalos,-8.5186,127.0025,23.05,93,20,1.07,TL,1712498666
184,esikhaleni,-28.871,31.8996,21.99,72,100,4.55,ZA,1712498555
185,villa gesell,-37.2639,-56.973,21.44,64,5,5.8,AR,1712498584
186,karacasu,37.7282,28.6057,13.64,61,100,3.04,TR,1712498668
187,hamilton,39.1834,-84.5333,11.44,63,40,6.17,US,1712498634
188,palasa,18.7667,84.4167,29.06,61,54,3.54,IN,1712498669
189,tabou,4.423,-7.3528,30.73,67,77,3.61,CI,1712498670
190,nouadhibou,20.931,-17.0347,22.99,68,0,8.23,MR,1712498636
191,san-pedro,4.7485,-6.6363,31.44,64,93,4.7,CI,1712498459
192,vilyuysk,63.7553,121.6247,-12.22,95,19,2.24,RU,1712498672
193,pleiku,13.9833,108.0,26.23,54,99,1.5,VN,1712498672
194,kalmunai,7.4167,81.8167,28.49,76,33,4.02,LK,1712498673
195,argo,37.6333,22.7333,24.88,45,18,7.27,GR,1712498673
196,nchelenge,-9.3451,28.734,25.55,73,98,0.59,ZM,1712498674
197,fecamp,49.7579,0.3746,18.49,71,76,7.15,FR,1712498675
198,christchurch,-43.5333,172.6333,13.84,82,100,3.09,NZ,1712498359
199,chibougamau,49.9168,-74.3659,2.79,52,0,2.06,CA,1712498676
200,lihue,21.9789,-159.3672,21.58,88,100,9.26,US,1712498677
201,beloyarskiy,63.7119,66.6722,-3.33,75,100,5.81,RU,1712498678
202,smirnovo,54.5125,69.4222,0.01,65,100,4.78,KZ,1712498678
203,nova sintra,14.8667,-24.7167,23.22,76,1,9.47,CV,1712498679
204,sinabang,2.4803,96.3801,27.4,83,99,1.83,ID,1712498680
205,taman',45.2117,36.7161,10.8,64,8,8.04,RU,1712498680
206,lebu,-37.6167,-73.65,14.46,73,100,3.48,CL,1712498681
207,thompson,55.7435,-97.8558,1.09,55,40,1.03,CA,1712498616
208,acarau,-2.8856,-40.12,28.63,75,100,0.6,BR,1712498682
209,vilhena,-12.7406,-60.1458,25.12,88,40,5.14,BR,1712498551
210,afaahiti,-17.75,-149.2833,25.93,84,100,5.4,PF,1712498683
211,rikaze,29.25,88.8833,6.57,9,0,2.51,CN,1712498684
212,tofol,5.3248,163.0078,28.02,82,100,8.35,FM,1712498685
213,cataingan,12.003,123.992,26.33,75,39,6.25,PH,1712498686
214,uturoa,-16.7333,-151.4333,29.1,77,100,3.52,PF,1712498686
215,kerikeri,-35.2268,173.9474,13.51,82,47,2.12,NZ,1712498687
216,puerto san jose,13.9256,-90.8244,28.86,63,49,2.88,GT,1712498688
217,newman,37.3138,-121.0208,7.23,91,3,0.89,US,1712498688
218,viedma,-40.8135,-62.9967,22.4,32,14,2.85,AR,1712498685
219,fasa,28.9383,53.6482,25.58,13,75,2.06,IR,1712498690
220,keflavik,64.0049,-22.5624,2.95,60,75,14.92,IS,1712498475
221,klyuchi,52.2667,79.1667,3.35,76,100,5.08,RU,1712498691
222,kayangel,8.0823,134.7173,28.45,70,48,7.64,PW,1712498691
223,kone,-21.0595,164.8658,21.78,88,61,2.34,NC,1712498637
224,yuzhno-kurilsk,44.0306,145.8556,2.43,88,100,3.24,RU,1712498693
225,vilyuchinsk,52.9306,158.4028,1.07,74,97,3.09,RU,1712498693
226,praia,14.9215,-23.5087,28.3,47,0,8.75,CV,1712498694
227,qarqaraly,49.4058,75.4742,7.33,80,91,4.11,KZ,1712498695
228,ponta delgada,37.7333,-25.6667,18.44,88,75,10.8,PT,1712498481
229,ambovombe,-25.1667,46.0833,24.32,84,34,5.63,MG,1712498696
230,souillac,-20.5167,57.5167,29.21,79,40,3.09,MU,1712498468
231,homer,59.6425,-151.5483,1.13,73,0,1.54,US,1712498697
232,mazatlan,23.2167,-106.4167,18.84,86,100,0.89,MX,1712498503
233,kingston,17.997,-76.7936,29.53,71,20,3.6,JM,1712498641
234,pichucalco,17.5167,-93.0667,28.19,57,2,1.18,MX,1712498699
235,nadym,65.5333,72.5167,-4.46,80,100,13.37,RU,1712498699
236,belmonte,-15.8631,-38.8828,28.85,54,0,5.0,BR,1712498527
237,vila velha,-20.3297,-40.2925,29.42,74,40,3.6,BR,1712498100
238,olinda,-8.0089,-34.8553,31.85,70,40,5.14,BR,1712498499
239,woburn sands,52.0158,-0.6498,16.42,65,40,13.89,GB,1712498702
240,baki,-7.6128,110.7839,24.95,91,100,2.73,ID,1712498703
241,daru,-9.0763,143.2092,27.9,83,99,2.62,PG,1712498703
242,ilulissat,69.2167,-51.1,-6.08,83,100,0.64,GL,1712498704
243,mejit,10.2753,170.8646,26.87,79,100,9.3,MH,1712498705
244,rongelap,11.1635,166.8941,27.0,76,78,9.13,MH,1712498705
245,amalapuram,16.5833,82.0167,27.64,79,5,2.95,IN,1712498598
246,porto novo,6.4965,2.6036,33.9,53,95,4.91,BJ,1712498706
247,tursunzoda,38.5144,68.2333,17.62,34,6,2.02,TJ,1712498619
248,rodniki,57.1051,41.7305,4.3,80,100,3.68,RU,1712498708
249,gadzhiyevo,69.2551,33.3362,-3.47,83,99,2.79,RU,1712498561
250,sao jose da coroa grande,-8.8978,-35.1478,29.86,67,82,3.31,BR,1712498709
251,rio de janeiro,-22.9028,-43.2075,28.12,75,75,2.57,BR,1712498091
252,hami,42.8,93.45,14.57,30,50,1.45,CN,1712498475
253,taoudenni,22.6783,-3.9836,40.59,6,0,0.61,ML,1712498711
254,puerto padre,21.195,-76.6028,26.05,66,76,3.73,CU,1712498712
255,martapura,-3.4167,114.85,24.71,91,96,0.55,ID,1712498712
256,mil'kovo,55.6078,37.7956,14.73,78,81,2.28,RU,1712498713
257,vernon,50.2581,-119.2691,2.94,71,4,4.12,CA,1712498501
258,kas,36.2018,29.6377,21.1,44,100,0.55,TR,1712498715
259,motygino,58.1831,94.7592,-2.9,96,100,4.47,RU,1712498716
260,lubango,-14.9172,13.4925,24.92,57,100,3.6,AO,1712498716
261,juneau,58.3019,-134.4197,1.34,100,100,2.69,US,1712498623
262,kununurra,-15.7667,128.7333,23.99,83,24,0.0,AU,1712498629
263,guamal,9.1433,-74.2238,32.14,59,100,1.43,CO,1712498471
264,sungai penuh,-2.0833,101.3833,20.33,97,100,1.25,ID,1712498719
265,nova olimpia,-14.7972,-57.2881,30.06,65,8,2.89,BR,1712498719
266,mangalia,43.8,28.5833,13.35,80,19,3.89,RO,1712498436
267,zhaobaoshan,29.9695,121.6875,14.01,98,100,1.52,CN,1712498550
268,ain el bya,35.8039,-0.3018,33.27,20,100,3.96,DZ,1712498721
269,alofi,-19.0595,-169.9187,25.94,89,75,5.14,NU,1712498722
270,cooper's town,26.8667,-77.5167,20.75,56,54,3.71,BS,1712498722
271,campobello di mazara,37.6358,12.7443,27.48,40,0,5.8,IT,1712498723
272,page,36.9147,-111.4558,5.62,35,1,0.89,US,1712498483
273,kutno,52.2306,19.3641,26.98,49,99,4.92,PL,1712498724
274,revda,56.801,59.9303,1.59,88,100,3.37,RU,1712498726
275,dod ballapur,13.2919,77.5431,33.91,15,21,4.44,IN,1712498726
276,makoua,0.0069,15.6333,29.98,67,91,1.1,CG,1712498727
277,gadani,25.1185,66.7299,29.12,69,0,3.86,PK,1712498727
278,kattivakkam,13.2167,80.3167,32.05,71,100,6.71,IN,1712498541
279,santa cruz,-17.8,-63.1667,28.03,78,75,5.14,BO,1712498571
280,roma,43.2128,-75.4557,8.79,54,0,3.6,US,1712498551
281,severnoye,56.3491,78.3619,-2.79,81,12,7.15,RU,1712498731
282,katsuura,35.1333,140.3,16.47,94,100,1.59,JP,1712498731
283,qaqortoq,60.7167,-46.0333,-1.59,95,100,1.9,GL,1712498732
284,muisne,0.6,-80.0333,26.73,79,92,3.75,EC,1712498733
285,kurchatov,51.6601,35.6521,19.23,69,100,3.45,RU,1712498734
286,tabuk,17.4189,121.4443,26.08,77,100,1.94,PH,1712498735
287,adrar,20.5022,-10.0711,36.04,14,23,3.94,MR,1712498735
288,bel ombre,-4.6167,55.4167,28.91,84,40,2.06,SC,1712498736
289,metro,-5.1131,105.3067,24.9,91,96,1.91,ID,1712498737
290,tolanaro,-25.0319,46.9987,27.04,89,40,2.06,MG,1712498737
291,selfoss,63.9331,-20.9971,2.25,43,100,14.0,IS,1712498263
292,port lincoln,-34.7333,135.8667,14.74,68,53,2.39,AU,1712498738
293,turpan,42.9333,89.1667,19.23,18,12,1.38,CN,1712498573
294,yeppoon,-23.1333,150.7333,22.88,88,97,1.92,AU,1712498740
295,peace river,56.2501,-117.286,0.92,84,20,2.57,CA,1712498741
296,saudarkrokur,65.7461,-19.6394,-0.99,86,100,13.0,IS,1712498581
297,lorengau,-2.0226,147.2712,27.82,80,100,3.99,PG,1712498742
298,itaituba,-4.2761,-55.9836,29.09,79,75,2.06,BR,1712498482
299,darnah,32.767,22.6367,19.51,59,4,10.85,LY,1712498743
300,lata,40.1629,-8.3327,20.51,47,100,4.33,PT,1712498744
301,galle,6.0367,80.217,28.27,78,99,2.42,LK,1712498693
302,buckeye,33.3703,-112.5838,13.24,48,1,2.16,US,1712498686
303,mount isa,-20.7333,139.5,19.87,60,55,4.12,AU,1712498460
304,frederico westphalen,-27.3592,-53.3944,19.88,90,100,1.13,BR,1712498460
305,bowen,-20.0167,148.2333,25.26,87,5,2.86,AU,1712498747
306,ruy barbosa,-12.2839,-40.4939,28.41,64,86,3.35,BR,1712498748
307,banikoara,11.2985,2.4386,41.21,19,27,1.42,BJ,1712498453
308,lan sak,15.4529,99.5761,34.32,40,0,4.82,TH,1712498749
309,saijo,33.9167,133.1833,18.05,88,61,0.91,JP,1712498654
310,neiafu,-18.65,-173.9833,26.66,81,95,7.59,TO,1712498750
311,san pedro pochutla,15.7333,-96.4667,26.84,50,0,2.22,MX,1712498624
312,metlili chaamba,32.2667,3.6333,30.52,12,75,6.17,DZ,1712498752
313,dumbea,-22.15,166.45,21.98,88,89,2.28,NC,1712498752
314,dera bugti,29.0307,69.151,31.05,9,0,5.08,PK,1712498753
315,sao miguel do araguaia,-13.275,-50.1628,24.86,88,100,1.37,BR,1712498709
316,sorochinsk,52.4338,53.1583,8.72,84,95,3.82,RU,1712498754
317,unai,-16.3575,-46.9061,27.58,64,41,2.8,BR,1712498666
318,nioki,-2.7167,17.6833,30.85,58,100,0.73,CD,1712498755
319,margate,51.3813,1.3862,16.04,57,100,5.81,GB,1712498756
320,thunder bay,48.4001,-89.3168,3.99,56,0,6.17,CA,1712498460
321,antofagasta,-23.65,-70.4,19.6,73,45,3.71,CL,1712498748
322,inari,68.906,27.0288,-0.89,87,100,2.91,FI,1712498758
323,alice springs,-23.7,133.8833,13.75,72,100,0.0,AU,1712498758
324,santa maria,-29.6842,-53.8069,18.61,94,75,2.06,BR,1712498759
325,pemangkat,1.1667,108.9667,27.28,78,99,2.06,ID,1712498759
326,lamar,33.6668,-95.5836,17.95,43,100,4.63,US,1712498760
327,brookings,44.3114,-96.7984,6.77,88,100,8.75,US,1712498376
328,ryotsu-minato,38.0833,138.4333,12.0,70,48,0.58,JP,1712498761
329,kharp,66.8014,65.8081,-4.6,97,100,5.0,RU,1712498762
330,amga,60.8953,131.9608,-9.94,98,100,1.44,RU,1712498763
331,aden,12.7794,45.0367,28.43,71,80,6.29,YE,1712498721
332,oroqen zizhiqi,50.5667,123.7167,-9.74,51,9,3.79,CN,1712498764
333,kabo,7.6994,18.629,27.98,57,96,2.99,CF,1712498765
334,katabu,-4.9333,122.5167,24.91,94,100,1.04,ID,1712498766
335,mili,6.0815,171.735,27.86,82,36,10.77,MH,1712498766
336,jieshi,22.8134,115.8257,22.43,90,99,6.33,CN,1712498767
337,pacific grove,36.6177,-121.9166,7.03,86,0,2.06,US,1712498768
338,renigunta,13.65,79.5167,35.99,26,20,2.57,IN,1712498769
339,san bernardo del viento,9.3533,-75.9524,29.96,71,100,2.05,CO,1712498769
340,summerside,46.3959,-63.7876,4.27,100,100,8.75,CA,1712498770
341,gorom-gorom,14.4439,-0.2361,41.3,7,81,3.2,BF,1712498770
342,camalu,30.85,-116.0667,11.05,79,0,2.6,MX,1712498771
343,axum,14.1245,38.7244,26.06,22,100,1.03,ET,1712498692
344,sinop,41.7711,34.8709,9.94,64,41,4.62,TR,1712498643
345,alaghsas,17.0187,8.0168,40.94,6,99,6.69,NE,1712498773
346,huron,41.1501,-82.5499,8.87,58,0,2.95,US,1712498773
347,yanchep,-31.55,115.6833,25.68,38,4,8.38,AU,1712498774
348,teofilo otoni,-17.8575,-41.5053,25.68,55,0,2.9,BR,1712498775
349,williamsburg,37.2707,-76.7075,13.28,52,0,3.6,US,1712498775
350,the pas,53.8251,-101.2541,3.01,56,75,3.09,CA,1712498571
351,mahenge,-8.6833,36.7167,22.25,89,99,1.06,TZ,1712498777
352,den burg,53.0542,4.7972,18.3,74,0,10.8,NL,1712498778
353,lerwick,60.1545,-1.1494,10.0,81,69,11.5,GB,1712498779
354,timbuktu,16.7735,-3.0074,41.79,6,65,2.87,ML,1712498779
355,puerto lempira,15.2667,-83.7667,27.08,74,75,4.63,HN,1712498780
356,tomiya,38.3931,140.8861,12.82,98,100,0.37,JP,1712498781
357,teguise,29.0605,-13.564,22.12,41,20,8.23,ES,1712498781
358,ust-tsilma,65.441,52.1498,-1.33,91,100,4.47,RU,1712498782
359,shambu,9.5667,37.1,21.64,36,90,1.55,ET,1712498695
360,dehdasht,30.7949,50.5646,23.99,29,100,1.58,IR,1712498783
361,rauma,61.1272,21.5113,6.02,97,100,7.37,FI,1712498784
362,claudio,-20.4433,-44.7658,24.71,67,0,2.18,BR,1712498580
363,midvagur,62.0511,-7.1939,7.46,87,100,12.86,FO,1712498786
364,mogadishu,2.0371,45.3438,30.93,79,20,5.14,SO,1712498786
365,zaozersk,69.4005,32.4476,-3.7,85,100,2.93,RU,1712498787
366,jurilovca,44.7667,28.8667,18.05,77,20,3.36,RO,1712498788
367,kisanga,-7.4362,37.7034,27.88,88,100,1.14,TZ,1712498788
368,utrik,11.2278,169.8474,26.78,79,100,9.59,MH,1712498789
369,khanty-mansiysk,61.0042,69.0019,-0.94,40,0,7.15,RU,1712498648
370,saldanha,-33.0117,17.9442,20.03,74,100,10.87,ZA,1712498790
371,chiredzi,-21.05,31.6667,28.29,53,95,2.4,ZW,1712498592
372,kailua-kona,19.6406,-155.9956,22.98,91,75,4.12,US,1712498791
373,dilling,12.05,29.65,36.15,8,94,5.72,SD,1712498792
374,slave lake,55.2834,-114.769,-4.01,93,0,1.54,CA,1712498534
375,caleta de carquin,-11.0925,-77.6267,22.76,85,100,3.18,PE,1712498793
376,coquimbo,-29.9533,-71.3436,12.85,100,100,1.54,CL,1712498731
377,xai-xai,-25.0519,33.6442,23.66,78,100,7.31,MZ,1712498795
378,acapulco de juarez,16.8634,-99.8901,24.61,55,0,0.74,MX,1712498536
379,quellon,-43.1167,-73.6167,9.84,80,100,1.72,CL,1712498515
380,port saint john's,-31.6229,29.5448,19.71,88,100,6.86,ZA,1712498796
381,nuuk,64.1835,-51.7216,-1.66,80,40,4.12,GL,1712498797
382,douglas,41.3,-96.167,11.95,87,40,3.6,US,1712498523
383,codrington,-38.2667,141.9667,10.98,90,0,3.4,AU,1712498798
384,forio,40.7342,13.8646,22.51,79,0,5.36,IT,1712498799
385,saint-denis,48.9167,2.3333,19.57,66,100,4.12,FR,1712498629
386,siliana,36.085,9.3708,30.46,14,2,2.12,TN,1712498800
387,masaya sur,16.497,121.7456,23.39,85,12,2.27,PH,1712498801
388,coos bay,43.3665,-124.2179,6.63,100,75,3.6,US,1712498801
389,dettelbach,49.8,10.1833,25.28,53,100,1.45,DE,1712498802
390,novyy turtkul',41.55,61.0167,22.95,24,100,1.49,UZ,1712498802
391,happy valley-goose bay,53.3168,-60.3315,3.92,59,49,1.04,CA,1712498803
392,baise city,23.8997,106.6133,21.3,99,100,1.24,CN,1712498804
393,mingshui,36.7167,117.5,23.08,33,100,1.65,CN,1712498804
394,bamboo flat,11.7,92.7167,29.05,79,20,1.03,IN,1712498655
395,bereket,39.2446,55.5154,25.65,21,100,4.61,TM,1712498612
396,al burayqah,30.4062,19.5739,19.69,60,0,6.76,LY,1712498806
397,rawson,-43.3002,-65.1023,17.34,52,79,3.48,AR,1712498807
398,palmerston,-12.486,130.9833,27.99,84,0,1.54,AU,1712498807
399,yaren,-0.5472,166.916,27.79,83,100,5.04,NR,1712498808
400,vadso,70.0744,29.7487,-2.51,74,100,5.66,NO,1712498809
401,comstock northwest,42.3218,-85.5176,9.92,50,0,4.12,US,1712498809
402,usinsk,65.9939,57.5281,-1.07,89,100,7.6,RU,1712498810
403,srinagar,34.0833,74.8167,13.34,58,65,1.2,IN,1712498811
404,huilong,31.8111,121.655,9.53,91,100,4.16,CN,1712498812
405,nikolayevsk-on-amure,53.1406,140.73,-0.44,93,100,3.13,RU,1712498812
406,mogocha,53.7333,119.7667,-15.92,97,25,1.31,RU,1712498813
407,tarko-sale,64.9225,77.785,-5.95,78,100,11.36,RU,1712498813
408,walvis bay,-22.9575,14.5053,18.94,60,1,10.38,NA,1712498695
409,kavaratti,10.5669,72.642,29.45,72,92,3.46,IN,1712498815
410,svetlyy,54.675,20.1347,23.03,70,100,6.36,RU,1712498731
411,kegen,43.0197,79.2203,0.93,91,94,1.57,KZ,1712498816
412,kupino,54.3663,77.2981,-0.95,71,12,3.89,RU,1712498817
413,novodvinsk,64.4165,40.8122,-2.14,93,100,2.19,RU,1712498047
414,tougue,11.4667,-11.6,37.82,15,51,2.52,GN,1712498818
415,bam,29.106,58.357,29.0,13,91,8.39,IR,1712498819
416,hakkari,37.5833,44.1667,5.18,99,100,1.56,TR,1712498520
417,santo antonio da platina,-23.295,-50.0772,28.68,47,76,3.23,BR,1712498547
418,mount gambier,-37.8333,140.7667,10.03,96,4,1.9,AU,1712498586
419,la sarre,48.8002,-79.1996,1.16,90,100,1.26,CA,1712498553
420,itoman,26.1247,127.6694,21.21,100,75,2.57,JP,1712498822
421,fort st. john,56.2499,-120.8529,1.94,60,20,6.69,CA,1712498601
422,kabalo,-6.05,26.9167,22.41,96,100,1.42,CD,1712498714
423,kyzyl-suu,42.3414,78.0056,5.1,69,87,3.06,KG,1712498824
424,remire-montjoly,4.9167,-52.2667,31.02,62,100,5.14,GF,1712498825
425,xilin hot,43.9667,116.0333,5.44,47,100,5.36,CN,1712498826
426,lucapa,-8.4192,20.7447,20.79,95,100,1.92,AO,1712498826
427,mana,5.6592,-53.7767,29.62,63,92,4.67,GF,1712498827
428,alvesta,56.8993,14.5556,16.15,62,20,7.2,SE,1712498579
429,crane,31.3974,-102.3501,12.08,17,100,2.1,US,1712498829
430,kochkor-ata,41.0389,72.4833,17.07,32,85,0.89,UZ,1712498829
431,colonia,50.9333,6.95,24.41,50,0,3.6,DE,1712498830
432,mawlamyinegyunn,16.3833,95.2667,29.4,66,0,4.91,MM,1712498830
433,scarborough,54.2797,-0.4044,14.95,76,2,5.36,GB,1712498831
434,ambodifotatra,-16.9833,49.85,27.37,80,4,3.7,MG,1712498832
435,graaff-reinet,-32.2522,24.5308,18.3,76,99,6.35,ZA,1712498832
436,plastun,44.7561,136.2939,4.18,58,7,1.43,RU,1712498779
437,erdenet,49.0333,104.0833,4.69,61,16,2.03,MN,1712498834
438,luis correia,-2.8792,-41.6669,30.0,79,40,1.54,BR,1712498834
439,lucea,18.451,-78.1736,29.36,67,0,4.36,JM,1712498835
440,korgun,40.7348,33.5184,15.49,31,34,8.16,TR,1712498836
441,freetown,8.484,-13.2299,29.92,62,60,4.07,SL,1712498837
442,talcahuano,-36.7167,-73.1167,9.82,100,0,2.57,CL,1712498665
443,villamontes,-21.25,-63.5,20.97,96,100,1.36,BO,1712498738
444,najafabad,32.6344,51.3668,24.3,15,99,6.8,IR,1712498840
445,berdigestyakh,62.0989,126.6992,-18.19,100,93,1.34,RU,1712498841
446,phu kradueng,16.8843,101.8847,31.64,45,100,1.93,TH,1712498841
447,el negrito,15.3167,-87.7,28.69,70,100,0.88,HN,1712498843
448,sao paulo de olivenca,-3.3783,-68.8725,23.85,99,100,1.54,BR,1712498843
449,colchani,-20.3,-66.9333,15.01,43,100,2.9,BO,1712498844
450,egersund,58.4513,5.9997,9.45,91,93,8.01,NO,1712498845
451,nabire,-3.3667,135.4833,25.67,90,100,1.22,ID,1712498846
452,las veredas,23.1388,-109.7075,18.95,63,75,4.12,MX,1712498847
453,aginskoye,51.1,114.53,-3.57,22,0,2.15,RU,1712498847
454,ancud,-41.8697,-73.8203,11.61,97,100,1.2,CL,1712498848
455,nicoya,10.1483,-85.452,28.61,66,98,3.68,CR,1712498849
456,tahla,34.0485,-4.428,24.04,46,52,3.05,MA,1712498849
457,piton saint-leu,-21.2196,55.3151,27.04,78,0,5.14,RE,1712498850
458,koluszki,51.7387,19.8199,26.59,51,99,5.16,PL,1712498851
459,calgary,51.0501,-114.0853,3.74,85,75,3.58,CA,1712498497
460,ar ruways,24.1103,52.7306,27.91,36,93,6.1,AE,1712498852
461,port alfred,-33.5906,26.891,20.34,79,100,12.33,ZA,1712498738
462,tomakomai,42.6369,141.6033,8.98,100,100,5.66,JP,1712498854
463,tual,-5.6667,132.75,28.26,79,85,1.96,ID,1712498837
464,knyaze-volkonskoye,48.4642,135.4567,2.78,34,92,2.68,RU,1712498855
465,haimen,23.1935,116.6142,21.09,94,100,4.71,CN,1712498856
466,gurupi,-11.7292,-49.0686,26.57,83,87,1.07,BR,1712498856
467,altus,34.6381,-99.334,13.73,30,0,6.69,US,1712498857
468,puerto aysen,-45.4,-72.7,8.98,88,40,2.21,CL,1712498858
469,uribia,11.7139,-72.266,32.7,50,93,9.37,CO,1712498858
470,oloron-sainte-marie,43.1944,-0.6107,22.96,60,100,4.51,FR,1712498859
471,kargasok,59.0556,80.8572,-8.35,81,28,0.45,RU,1712498859
472,banda aceh,5.5577,95.3222,27.84,79,56,3.22,ID,1712498860
473,diekholzen,52.0962,9.9195,24.83,53,84,5.21,DE,1712498860
474,manta,-0.95,-80.7333,28.88,74,40,4.63,EC,1712498861
475,isnos,1.9356,-76.2406,21.73,55,97,1.21,CO,1712498862
476,puerto carreno,6.189,-67.4859,32.94,51,100,0.8,CO,1712498862
477,kodinsk,58.6881,99.1844,3.02,99,100,4.14,RU,1712498736
478,amarante,-6.2411,-42.8547,28.53,78,74,1.39,BR,1712498863
479,tsiombe,-25.3,45.4833,25.15,78,78,4.97,MG,1712498864
480,bikenibeu village,1.3673,173.1241,28.98,84,20,6.69,KI,1712498865
481,hadibu,12.65,54.0333,28.53,67,3,3.5,YE,1712498865
482,florence,43.7667,11.25,26.31,36,0,1.54,IT,1712498770
483,buala,-8.145,159.5921,26.59,86,100,2.49,SB,1712498867
484,ola,59.5833,151.2833,-6.03,86,98,5.63,RU,1712498868
485,shalqar,47.8333,59.6,17.37,37,100,6.45,KZ,1712498868
486,jalalabad,34.4265,70.4515,26.46,13,0,2.66,AF,1712498869
487,puerto quijarro,-17.7833,-57.7667,31.5,61,89,2.69,BO,1712498738
488,fale old settlement,-9.3852,-171.2468,29.2,74,6,1.89,TK,1712498870
489,katutura,-22.521,17.0557,25.89,16,0,3.13,NA,1712498871
490,toliara,-23.35,43.6667,28.15,73,96,9.68,MG,1712498756
491,pazarlar,38.995,29.1258,14.65,48,100,8.43,TR,1712498872
492,dombarovskiy,50.7587,59.5386,13.89,54,76,4.92,RU,1712498872
493,huancabamba,-5.2386,-79.4506,19.69,80,75,2.1,PE,1712498873
494,batu pahat,1.8548,102.9325,26.63,87,64,2.0,MY,1712498618
495,saint-philippe,-21.3585,55.7679,27.77,82,34,2.2,RE,1712498874
496,karachi,24.9056,67.0822,28.9,54,0,4.63,PK,1712498875
497,coyhaique,-45.5752,-72.0662,9.97,46,40,4.63,CL,1712498875
498,monywa,22.1167,95.1333,39.78,13,81,2.62,MM,1712498876
499,santana,-0.0583,-51.1817,32.1,62,40,4.63,BR,1712498805
500,panacan,9.2463,118.4082,26.8,74,100,2.7,PH,1712498877
501,nueva helvecia,-34.3,-57.2333,21.44,69,0,3.93,UY,1712498878
502,labrador city,52.9463,-66.9114,-0.67,68,66,1.8,CA,1712498878
503,taltal,-25.4,-70.4833,20.0,69,0,2.71,CL,1712498879
504,i-n-salah,27.1935,2.4607,40.35,5,15,3.36,DZ,1712498784
505,carnarvon,-24.8667,113.6333,24.25,74,0,9.79,AU,1712498880
506,rumonge,-3.9736,29.4386,22.76,91,97,0.67,BI,1712498881
507,fergus falls,46.283,-96.0776,4.2,85,100,8.23,US,1712498882
508,el obeid,13.1842,30.2167,36.59,7,100,6.54,SD,1712498882
509,pathein,16.7833,94.7333,26.81,85,0,3.99,MM,1712498883
510,hasaki,35.7333,140.8333,16.27,93,85,3.46,JP,1712498883
511,tarakan,3.3,117.6333,25.7,87,100,3.94,ID,1712498884
512,hobyo,5.3505,48.5268,29.91,67,17,4.67,SO,1712498778
513,chernyshevskiy,63.0128,112.4714,-4.35,95,100,4.51,RU,1712498885
514,santa ana,33.7456,-117.8678,11.07,75,0,1.54,US,1712498594
515,aripuana,-9.1667,-60.6333,25.91,87,100,1.75,BR,1712498744
516,tshabong,-26.05,22.45,28.78,36,5,8.92,BW,1712498888
517,novobelokatay,55.7062,58.9549,2.34,95,100,1.92,RU,1712498888
518,khandyga,62.6667,135.6,-7.6,98,100,1.18,RU,1712498889
519,sao joao da barra,-21.6403,-41.0511,29.05,70,0,0.63,BR,1712498813
520,apolinario saravia,-24.4328,-63.9954,20.24,97,100,4.59,AR,1712498891
521,lalitpur,27.6667,85.3333,23.21,27,75,2.57,NP,1712498891
522,lons-le-saunier,46.75,5.75,25.69,44,97,3.04,FR,1712498892
523,malmberget,67.1753,20.6549,-5.69,93,100,3.09,SE,1712498851
524,newnham,-41.3833,147.1333,11.48,93,40,2.57,AU,1712498893
525,chapaev,50.2,51.1667,11.19,70,46,2.18,KZ,1712498894
526,talara,-4.5772,-81.2719,27.42,61,0,8.75,PE,1712498895
527,al manshah,26.4769,31.8035,28.02,14,0,8.72,EG,1712498895
528,bangkalan,-7.0455,112.7351,27.97,82,96,1.52,ID,1712498838
529,mikkeli,61.6886,27.2723,2.06,93,100,4.12,FI,1712498896
530,morehead city,34.7229,-76.726,15.01,53,0,4.63,US,1712498862
531,mirny,62.5353,113.9611,-5.43,83,100,4.47,RU,1712498704
532,dawesville,30.9224,-84.0091,18.42,60,0,1.79,US,1712498898
533,willard,41.0531,-82.7263,9.74,53,0,3.24,US,1712498899
534,hersbruck,49.5125,11.4339,25.41,45,100,2.0,DE,1712498900
535,macapa,0.0389,-51.0664,31.99,62,40,4.63,BR,1712498868
536,ascension,30.2169,-90.9001,22.22,93,100,3.6,US,1712498901
537,khamis mushait,18.3064,42.7292,22.58,53,40,9.26,SA,1712498782
538,klaksvik,62.2266,-6.589,7.51,95,100,18.73,FO,1712498903
539,fuerte olimpo,-21.0415,-57.8738,35.28,39,46,3.13,PY,1712498903
540,dunedin,-45.8742,170.5036,10.45,96,82,1.34,NZ,1712498904
541,north ward,-19.2454,146.8075,25.95,94,100,0.0,AU,1712498905
542,cananea,30.95,-110.3,3.56,33,0,2.19,MX,1712498657
543,merizo village,13.2658,144.6691,27.31,89,38,7.71,GU,1712498906
544,rio brilhante,-21.8019,-54.5464,32.04,44,10,4.25,BR,1712498713
